$GPGGA,001600.096,,,,,0,3,,,M,,M,,*43
$GPGSA,A,1,,,,,,,,,,,,,,,*1E
$GPGSV,2,1,06,26,,,18,08,,,38,27,,,43,16,,,44*77
$GPGSV,2,2,06,04,,,44,09,,,42*74
$GPRMC,001600.096,V,,,,,0.16,0.00,211022,,,N*40
$GPGGA,001601.096,,,,,0,3,,,M,,M,,*42
$GPGSA,A,1,,,,,,,,,,,,,,,*1E
$GPRMC,001601.096,V,,,,,0.24,0.00,211022,,,N*40
$GPGGA,001603.000,,,,,0,3,,,M,,M,,*4F
$GPGSA,A,1,,,,,,,,,,,,,,,*1E
$GPRMC,001603.000,V,,,,,0.50,0.00,211022,,,N*4E
$GPGGA,001604.000,4044.4454,N,07410.7527,W,1,03,3.30,184.2,M,-34.2,M,,*59
$GPGSA,A,2,08,27,04,,,,,,,,,,3.45,3.30,1.00*09
$GPRMC,001604.000,A,4044.4454,N,07410.7527,W,0.09,0.00,211022,,,A*74
$GPGGA,001605.000,4044.4441,N,07410.7535,W,1,03,3.30,184.2,M,-34.2,M,,*5F
$GPGSA,A,2,08,27,04,,,,,,,,,,3.45,3.30,1.00*09
$GPRMC,001605.000,A,4044.4441,N,07410.7535,W,0.03,0.00,211022,,,A*78
$GPGGA,001606.000,4044.4435,N,07410.7541,W,1,03,3.30,184.2,M,-34.2,M,,*5C
$GPGSA,A,2,08,27,04,,,,,,,,,,3.45,3.30,1.00*09
$GPGSV,2,1,06,04,66,244,45,27,53,151,43,08,27,185,36,26,,,14*4F
$GPGSV,2,2,06,16,,,44,09,,,41*74
$GPRMC,001606.000,A,4044.4435,N,07410.7541,W,0.03,0.00,211022,,,A*7B
$GPGGA,001606.216,4044.4466,N,07410.7515,W,1,03,3.30,184.4,M,-34.2,M,,*58
$GPGSA,A,2,08,27,04,,,,,,,,,,3.45,3.30,1.00*09
$GPRMC,001606.216,A,4044.4466,N,07410.7515,W,8.60,29.41,211022,,,A*4A
$GPGGA,001608.000,4044.4481,N,07410.7509,W,1,03,3.30,184.5,M,-34.2,M,,*56
$GPGSA,A,2,08,27,04,,,,,,,,,,3.45,3.30,1.00*09
$GPRMC,001608.000,A,4044.4481,N,07410.7509,W,2.13,344.16,211022,,,A*71
$GPGGA,001609.000,4044.4487,N,07410.7509,W,1,03,3.30,184.6,M,-34.2,M,,*52
$GPGSA,A,2,08,27,04,,,,,,,,,,3.45,3.30,1.00*09
$GPRMC,001609.000,A,4044.4487,N,07410.7509,W,0.67,34.49,211022,,,A*49
$GPGGA,001610.000,4044.4490,N,07410.7507,W,1,03,3.30,184.6,M,-34.2,M,,*52
$GPGSA,A,2,08,27,04,,,,,,,,,,3.45,3.30,1.00*09
$GPRMC,001610.000,A,4044.4490,N,07410.7507,W,0.62,20.88,211022,,,A*44
$GPGGA,001611.000,4044.4494,N,07410.7504,W,1,03,3.30,184.6,M,-34.2,M,,*54
$GPGSA,A,2,08,27,04,,,,,,,,,,3.45,3.30,1.00*09
$GPGSV,2,1,05,04,66,244,42,27,53,151,43,08,28,185,36,16,,,46*40
$GPGSV,2,2,05,09,,,35*73
$GPRMC,001611.000,A,4044.4494,N,07410.7504,W,0.56,20.88,211022,,,A*45
$GPGGA,001612.000,4044.4496,N,07410.7505,W,1,03,3.30,184.6,M,-34.2,M,,*54
$GPGSA,A,2,08,27,04,,,,,,,,,,3.45,3.30,1.00*09
$GPRMC,001612.000,A,4044.4496,N,07410.7505,W,0.47,20.88,211022,,,A*45
$GPGGA,001612.211,4044.4496,N,07410.7506,W,1,03,63.33,184.6,M,-34.2,M,,*60
$GPGSA,A,2,08,27,04,,,,,,,,,,99.99,63.33,84.42*35
$GPRMC,001612.211,A,4044.4496,N,07410.7506,W,0.47,20.88,211022,,,A*44
$GPGGA,001614.000,4044.4498,N,07410.7507,W,1,03,63.31,184.6,M,-34.2,M,,*69
$GPGSA,A,2,08,27,04,,,,,,,,,,99.99,63.31,84.42*37
$GPRMC,001614.000,A,4044.4498,N,07410.7507,W,0.36,20.88,211022,,,A*49
$GPGGA,001615.000,4044.4500,N,07410.7508,W,1,03,63.31,184.7,M,-34.2,M,,*66
$GPGSA,A,2,08,27,04,,,,,,,,,,99.99,63.31,84.42*37
$GPRMC,001615.000,A,4044.4500,N,07410.7508,W,0.31,20.88,211022,,,A*40
$GPGGA,001616.000,4044.4499,N,07410.7511,W,1,03,63.30,184.7,M,-34.2,M,,*6D
$GPGSA,A,2,08,27,04,,,,,,,,,,99.99,63.30,84.43*37
$GPGSV,2,1,05,04,66,244,39,27,53,151,43,08,28,185,38,16,,,45*41
$GPGSV,2,2,05,09,,,35*73
$GPRMC,001616.000,A,4044.4499,N,07410.7511,W,0.17,20.88,211022,,,A*4E
$GPGGA,001617.000,4044.4501,N,07410.7512,W,1,03,3.30,184.6,M,-34.2,M,,*58
$GPGSA,A,2,08,27,04,,,,,,,,,,3.45,3.30,1.00*09
$GPRMC,001617.000,A,4044.4501,N,07410.7512,W,0.17,20.88,211022,,,A*4C
$GPGGA,001618.000,4044.4502,N,07410.7512,W,1,03,3.30,184.6,M,-34.2,M,,*54
$GPGSA,A,2,08,27,04,,,,,,,,,,3.45,3.30,1.00*09
$GPRMC,001618.000,A,4044.4502,N,07410.7512,W,0.16,20.88,211022,,,A*41
$GPGGA,001618.211,4044.4503,N,07410.7512,W,1,03,3.30,184.6,M,-34.2,M,,*57
$GPGSA,A,2,08,27,04,,,,,,,,,,3.45,3.30,1.00*09
$GPRMC,001618.211,A,4044.4503,N,07410.7512,W,0.13,20.88,211022,,,A*47
$GPGGA,001620.000,4044.4504,N,07410.7513,W,1,03,3.30,184.6,M,-34.2,M,,*58
$GPGSA,A,2,08,27,04,,,,,,,,,,3.45,3.30,1.00*09
$GPRMC,001620.000,A,4044.4504,N,07410.7513,W,0.10,20.88,211022,,,A*4B
$GPGGA,001621.000,4044.4508,N,07410.7511,W,1,03,3.30,184.6,M,-34.2,M,,*57
$GPGSA,A,2,08,27,04,,,,,,,,,,3.45,3.30,1.00*09
$GPGSV,2,1,05,04,66,244,38,27,53,151,43,08,28,185,38,16,,,46*43
$GPGSV,2,2,05,09,,,33*75
$GPRMC,001621.000,A,4044.4508,N,07410.7511,W,0.25,20.88,211022,,,A*42
$GPGGA,001622.000,4044.4510,N,07410.7511,W,1,03,63.25,184.6,M,-34.2,M,,*6F
$GPGSA,A,2,08,27,04,,,,,,,,,,99.99,63.25,84.44*34
$GPRMC,001622.000,A,4044.4510,N,07410.7511,W,0.20,20.88,211022,,,A*4D
$GPGGA,001623.000,4044.4512,N,07410.7510,W,1,03,3.30,184.6,M,-34.2,M,,*5F
$GPGSA,A,2,08,27,04,,,,,,,,,,3.45,3.30,1.00*09
$GPRMC,001623.000,A,4044.4512,N,07410.7510,W,0.04,20.88,211022,,,A*49
$GPGGA,001624.000,4044.4514,N,07410.7510,W,1,03,3.30,184.6,M,-34.2,M,,*5E
$GPGSA,A,2,08,27,04,,,,,,,,,,3.45,3.30,1.00*09
$GPRMC,001624.000,A,4044.4514,N,07410.7510,W,0.12,20.88,211022,,,A*4F
$GPGGA,001624.215,4044.4515,N,07410.7510,W,1,03,3.30,184.6,M,-34.2,M,,*59
$GPGSA,A,2,08,27,04,,,,,,,,,,3.45,3.30,1.00*09
$GPRMC,001624.215,A,4044.4515,N,07410.7510,W,0.14,20.88,211022,,,A*4E
$GPGGA,001626.000,4044.4516,N,07410.7509,W,1,03,3.30,184.6,M,-34.2,M,,*56
$GPGSA,A,2,08,27,04,,,,,,,,,,3.45,3.30,1.00*09
$GPGSV,2,1,05,04,66,244,38,27,53,151,40,08,28,185,36,16,,,45*4D
$GPGSV,2,2,05,09,,,25*72
$GPRMC,001626.000,A,4044.4516,N,07410.7509,W,0.12,20.88,211022,,,A*47
$GPGGA,001627.000,4044.4519,N,07410.7509,W,1,03,3.30,184.6,M,-34.2,M,,*58
$GPGSA,A,2,08,27,04,,,,,,,,,,3.45,3.30,1.00*09
$GPRMC,001627.000,A,4044.4519,N,07410.7509,W,0.10,20.88,211022,,,A*4B
$GPGGA,001628.000,4044.4522,N,07410.7508,W,1,03,3.30,184.5,M,-34.2,M,,*5D
$GPGSA,A,2,08,27,04,,,,,,,,,,3.45,3.30,1.00*09
$GPRMC,001628.000,A,4044.4522,N,07410.7508,W,0.18,20.88,211022,,,A*45
$GPGGA,001629.000,4044.4525,N,07410.7508,W,1,03,3.30,184.5,M,-34.2,M,,*5B
$GPGSA,A,2,08,27,04,,,,,,,,,,3.45,3.30,1.00*09
$GPRMC,001629.000,A,4044.4525,N,07410.7508,W,0.19,20.88,211022,,,A*42
$GPGGA,001630.000,4044.4527,N,07410.7508,W,1,03,3.30,184.5,M,-34.2,M,,*51
$GPGSA,A,2,08,27,04,,,,,,,,,,3.45,3.30,1.00*09
$GPRMC,001630.000,A,4044.4527,N,07410.7508,W,0.21,20.88,211022,,,A*43
$GPGGA,001630.214,4044.5048,N,07410.7384,W,1,05,1.82,60.8,M,-34.2,M,,*62
$GPGSA,A,3,08,27,16,04,09,,,,,,,,2.06,1.82,0.97*04
$GPGSV,2,1,06,16,72,031,44,04,66,244,40,27,53,150,37,09,42,301,34*77
$GPGSV,2,2,06,51,32,225,,08,28,185,36*74
$GPRMC,001630.214,A,4044.5048,N,07410.7384,W,0.34,20.88,211022,,,A*4F
$GPGGA,001632.000,4044.5049,N,07410.7384,W,1,05,1.82,60.8,M,-34.2,M,,*66
$GPGSA,A,3,08,27,16,04,09,,,,,,,,2.06,1.82,0.97*04
$GPRMC,001632.000,A,4044.5049,N,07410.7384,W,0.29,20.88,211022,,,A*47
$GPGGA,001633.000,4044.5050,N,07410.7386,W,1,05,1.82,60.7,M,-34.2,M,,*62
$GPGSA,A,3,08,27,16,04,09,,,,,,,,2.06,1.82,0.97*04
$GPRMC,001633.000,A,4044.5050,N,07410.7386,W,0.22,20.88,211022,,,A*47
$GPGGA,001634.000,4044.5048,N,07410.7387,W,1,05,1.82,60.7,M,-34.2,M,,*6D
$GPGSA,A,3,08,27,16,04,09,,,,,,,,2.06,1.82,0.97*04
$GPRMC,001634.000,A,4044.5048,N,07410.7387,W,0.22,20.88,211022,,,A*48
$GPGGA,001635.000,4044.5047,N,07410.7387,W,1,05,1.82,60.6,M,-34.2,M,,*62
$GPGSA,A,3,08,27,16,04,09,,,,,,,,2.06,1.82,0.97*04
$GPRMC,001635.000,A,4044.5047,N,07410.7387,W,0.20,20.88,211022,,,A*44
$GPGGA,001636.000,4044.5046,N,07410.7385,W,1,05,1.82,60.8,M,-34.2,M,,*6C
$GPGSA,A,3,08,27,16,04,09,,,,,,,,2.06,1.82,0.97*04
$GPGSV,2,1,06,16,72,031,43,04,66,244,39,27,53,150,44,09,42,301,35*7B
$GPGSV,2,2,06,51,32,225,,08,28,185,36*74
$GPRMC,001636.000,A,4044.5046,N,07410.7385,W,0.14,20.88,211022,,,A*43
$GPGGA,001637.000,4044.5043,N,07410.7383,W,1,05,1.82,60.8,M,-34.2,M,,*6E
$GPGSA,A,3,08,27,16,04,09,,,,,,,,2.06,1.82,0.97*04
$GPRMC,001637.000,A,4044.5043,N,07410.7383,W,0.14,20.88,211022,,,A*41
$GPGGA,001638.000,4044.5040,N,07410.7383,W,1,05,1.81,60.8,M,-34.2,M,,*61
$GPGSA,A,3,08,27,16,04,09,,,,,,,,2.06,1.81,0.97*07
$GPRMC,001638.000,A,4044.5040,N,07410.7383,W,0.14,20.88,211022,,,A*4D
$GPGGA,001639.000,4044.5038,N,07410.7383,W,1,05,1.81,60.9,M,-34.2,M,,*6E
$GPGSA,A,3,08,27,16,04,09,,,,,,,,2.06,1.81,0.97*07
$GPRMC,001639.000,A,4044.5038,N,07410.7383,W,0.14,20.88,211022,,,A*43